[
 { 
  "name":"Дендрозоопарк Крымского заповедника",
  "address":"Алушта, ул. Партизанская, 42",
  "founded":1923,
  "lat":44.681586,
  "long":34.397178
   },

 {
  "name":"Крепость Алустно",
  "address":"Алушта, ул. 15-го Апреля, 17-а",
  "founded":"VI в.",
  "lat":44.672367,
  "long":34.411778
   },

 {
  "name":"Дом-музей Бекетова",
  "address":"Алушта, ул. Комсомольская, 4",
  "founded":1896,
  "lat":44.657212,
  "long":34.404513
   },

 {
  "name":"Гора Кастель",
  "addres":"Алушта, Ялтинское шоссе",
  "lat":44.642721,
  "long":34.385974	
   },

 {
  "name":"Дача Голубка",
  "address":"Алушта, ул. Ленина, 20",
  "founded":1825,
  "lat":44.675175,
  "long":34.413487
   },

 {
  "name":"Парк Крым в миниатюре",
  "addrees":"Алушта, ул. Горького, 7",
  "founded":2012,
  "lat":44.670227,
  "long":34.410442
   },
 
 {
  "name":"Каменные грибы (Долина Сотеры)",
  "address":"п. Сатера, ур. Сотера",
  "lat":44.748056,
  "long":34.461944
   },

 { 
  "name":"Профессорский уголок",
  "address":"Алушта, ул. Набережная",
  "lat":44.654098,
  "long":34.403945
   },

 {
  "name":"Алуштинский аквариум",
  "address":"Алушта, ул. Горького, 6",
  "founded":2003, 
  "lat":44.671371,
  "long":34.409623
   },

 {
  "name":"Аквапарк Миндальная роща",
  "address":"Алушта, Профессорский уголок, ул. Набережная, 4-а",
  "founded":2006,
  "lat":44.656466,
  "long":34.405351
   },

 {
  "name":"Дельфинарий Акварель",
  "address":"Алушта, ул. Горького, 7",
  "founded":2012,
  "lat":44.669921,
  "long":34.411086
   },

 {
  "name":"Жилой дом (памятник архитектуры)",
  "address":"Алушта, ул. Красноармейская, 10",
  "founded":"XIX в.",
  "lat":44.679998,
  "long":34.41194
   },

 {
  "name":"Краеведческий музей",
  "address":"Алушта, ул. Ленина, 8",
  "founded":1971,
  "lat":44.673828,
  "long":34.414312
   },

 {
  "name":"Литературный музей Шмелева",
  "address":"Алушта, Профессорский уголок, ул. Набережная, 2",
  "founded":1993,
  "lat":44.666043,
  "long":34.411766
   },

 {
  "name":"Музей домовых",
  "address":"Алушта, с. Запрудное, ул. Южная, 1",
  "founded";2009,
  "lat":44.680906,
  "long":34.400233
   },

 {
  "name":"Музей Сергеева-Ценского",
  "address":"Алушта, ул. Сергеева-Ценского, 5",
  "founded":1962,
  "lat":44.661462,
  "long":34.4021
   },

 {
  "name":"Мультипарк",
  "address":"Алушта, ул. Горького, 16",
  "founded":2013,
  "lat":44.672053,
  "long":34.407908
   },

 {
  "name":"Церковь Феодора Стратилата",
  "address":"Алушта, ул. В. Хромых, 16",
  "founded":1842,
  "lat":44.674472,
  "long":34.411092
   }

]
