[
  {
   "name":"Ухтинский НПЗ",
   "address":"Россия, Республика Коми, г. Ухта, ул. Заводская, 11",
   "founded":1934,
   "lat":63.563587,
   "long":53.717752,
   "volume":5.8,
   "postcode":169400,
   "products": ["мазут топочный", "битум нефтяной", "битум сланцевый", "мазут флотский", "топливо дизельное", "нефтепродукты", "бензин", "масла смазочные", "топливо дизельное зимнее", "топливо моторное"],
   "phone": "5-23-55",
   "personnel":1360,
   "director": ""
   },
   
   {
     "name":"Ачинский НПЗ"
     "address":
   }


   {
    "address":"Россия, г. Ярославль, Московский проспект, д.130",
    "lat":57.545449,
    "long":39.789346,
    "name":"Славнефть-ЯНОС",
    "volume":15,
    "founded":1961,
    "founded":1938,
    "products": [],
    "director": ""
  },

   {
    "address":"Россия, г.Рязань, район Южный промузел, д. 8",
    "lat":54.629132,
    "long":39.735211,
    "name":"Рязанский НПЗ",
    "volume":17,
    "founded":1960,
    "products": [],
    "director": ""
   },

   {
    "address":"Россия, Нижегородская обл.,Кстово",
    "lat":56.105972,
    "long":44.143889,
    "name":"Лукойл-НОРСИ",
    "volume":17,
    "founded":1958,
    "products": [],
    "director": ""
  },

   {
    "address":"Россия, Йошкар-Ола, ул. Анциферова, 1, литера А",
    "lat":56.651403,
    "long":47.864136,
    "name":"Марийский НПЗ",
    "volume":1.2,
    "founded":1998,
    "products": [],
    "director": ""
   },
   
   {
    "address":"Россия, Краснодар, ул. Захарова, 2",
    "lat":44.997367,
    "long":38.961557,
    "name":"Краснодарский НПЗ",
    "volume":3,
    "founded":1911,
    "products": [],
    "director": ""
   },

   {
    "address":"Россия, Краснодарский край, Северский р-он, пгт Афипский, промзона",
    "lat":44.883651,
    "long":38.826431,
    "name":"Афипский НПЗ",
    "volume":5.25,
    "founded":1963,
    "products": [],
    "director": ""
   },

   {
    "address":"Россия, Краснодарский край, г. Туапсе, ул. Сочинская, 1",
    "lat":44.099931,
    "long":39.095875,
    "name":"Туапсинский НПЗ",
    "volume":5,
    "founded":1929,
    "products": [],
    "director": ""
   },

   {
    "address":"Россия, Волгоградская обл., г.Волгоград, ул. 40 лет ВЛКСМ, 55",
    "lat":48.490861,
    "long":44.610185,
    "name":"Волгоградский НПЗ",
    "volume":11,
    "founded":1957,
    "products": [],
    "director": ""
   },

   {
    "address":"Россия, Омская обл., г.Омск, пр. Губкина,1",
    "lat":73.1336,
    "long":55.414,
    "name":"Омский НПЗ",
    "volume":20,
    "founded":1955,
    "products": [],
    "director": ""
   },

   {
     "adress":"Россия, Астраханская обл., Красноярский район, пос. Аксарайский",
     "lat":49.399189,
     "long":44.08573,
     "name":"Астраханский ГПЗ",
     "volume":1.9,
     "founded":1981,
     "products": [],
     "director": ""
   },

   {
   "address":"Россия, Тюменская обл., г.Тюмень, Старый Тобольский Тракт, 20",
   "lat":57.107461,
   "long":65.755895,
   "name":"Антипинский НПЗ",
   "volume":7.5,
   "founded":2006,
   "products": [],
   "director": ""
   },
 
    {
   "address":"Россия, Томская обл., г.Стрежевой, промзона",
   "lat":60.737835,
   "long":77.591687,
   "name":"Стрежевское НПЗ",
   "volume":0.3,
   "founded":1999,
   "products": [],
   "director": ""
   },

   {
   "address":"Россия, Ханты-Мансийский автономный округ,г. Урай,улица Ленина, 116-А",
   "lat":60.126599,
   "long":64.769514,
   "name":"Урайский НПЗ",
   "volume":0.1,
   "founded":1995,
   "products": [],
   "director": ""
   },

   {
   "address":"Россия, Томская обл., г. Томск, ул. Вершинина, 52",
   "lat":56.457745,
   "long":84.963394,
   "name":"Томский НПЗ",
   "volume":1.5,
   "founded":2008,
   "products": [],
   "director": ""
   },

   {
   "address":"Россия, Ярославская обл. ,г.Ярославль, Московский проспект, дом 130",
   "lat":57.555013,
   "long":39.814269,
   "name":"Славнефть-ЯНОС",
   "volume":14,
   "founded":1961,
   "products": [],
   "director": ""
   },
   
   {
   "address":"Россия, Ханты-Мансийский авт.округ,г. Сургут, Университетская улица, 1",
   "lat":61.245108,
   "long":73.404840,
   "name":"Сургутский НПЗ",
   "volume":4,
   "founded":1985,
   "products": [],
   "director": ""
    },
   
   {
    "address":"Россия, Ханты-Мансийский автономный округ, Тюменская область, г. Когалым, ул. Дружбы народов, 6",
    "lat":62.1600,
    "long":74.2900,
    "name":"Когалымский НПЗ",
   "volume":0.3,
   "founded":1976,
    "products": [],
    "director": ""
   },
  
   {
    "address":" Россия, г. Уфа, ул. Карла Маркса, д. 30",
    "lat":54.5047,
    "long":56.553,
    "name":"Уфимский НПЗ",
    "volume":6.7,
    "founded":1940,
    "products": [],
    "director": ""
   },
  
    {
    "address":"Россия, Краснодарский край, Крымск, Улица Кирова д. 156",
    "lat":44.5128,
    "long":38.3616,
    "name":"Ильский НПЗ",
    "volume":0.75,
    "founded":2001,
    "products": [],
    "director": ""
   },
    
   {
    "address":"Россия, Самарская область, Самара, ул. Грозненская, д. 25",
    "lat":53.102200,
    "long":50.053250,
    "name":"Куйбышевский НПЗ",
    "volume":7,
    "founded":1943,
    "products": [],
    "director": ""
   }, 
   
   {
    "address":"Россия, Саратовская область, Саратов, Брянская ул., 1",
    "lat":51.2702,
    "long":45.5638,
    "name":"Саратовский НПЗ",
    "volume":6.6,
    "founded":1934,
    "products": [],
    "director": ""
   },
   
   
   {
    "address":"Россия, республика Татарстан, г. Нижнекамск, а/я 97 РУПС, ОАО «ТАНЕКО»",
    "lat":55.614,
    "long":51.892,
    "name":"Нижнекамский НПЗ",
    "volume":7,
    "founded":1997,
    "products": [],
    "director": ""
   },
   
   {
    "address":" Приволжский федеральный округ, Марий Эл, Оршанский район,Табашино",
    "lat":56.981331,
    "long":47.725502,
    "name":"Марийский НПЗ",
    "volume":1.2,
    "founded":1995,
    "products": [],
    "director": ""
   },
   
   {
    "address":"Украина, Луганская область, Лисичанск-17",
    "lat":48.5048,
    "long":38.1813,
    "name":"Лисичинский НПЗ",
    "volume":23.7,
    "founded":1976,
    "products": [],
    "director": ""
   },
   
  
   {
    "address":"Россия,СВЕРДЛОВСКАЯ ОБЛАСТЬ, Г ВЕРХОТУРЬЕ, УЛ ПАРКОВАЯ, Д 6  ",
    "lat":58.5200,
    "long":60.4800,
    "name":"Верхотурский НПЗ",
    "volume":-1,
    "founded":2006,
    "products": [],
    "director": "" 
   },
   {
   "address":"Россия,682860, Хабаровский край, п. Ванино, ул. Одесская, 1А",
   "lat":   49.078279,
   "long":  140.284546,
   "name": "ГК Трансбункер",
   "volume": 0.6,
   "founded":1991,
   "products": [],
   "director": ""
  },
 
   {
   "address":"Россия,680011,  г. Хабаровск, ул. Металлистов, 17",
   "lat":   48.29334,
   "long":  135.475,
   "name": "НК Альянс",
   "volume": 4.35,
   "founded":1935,
   "products": [],
   "director": ""
  },

  {
   "address":"Россия, 390011, Россия, Рязанская обл., г.Рязань, район Южный промузел, д. 8",
   "lat": 57.34269,
   "long": 37.47846,
   "name": "Славнефть-ЯНОС",
   "volume": 17,
   "founded":1952,
   "products": [],
   "director": ""
  },

  {
   "address":"Россия, 652104, Кемеровская область, Яйский район, пос. Станция Судженка",
   "lat": 55.41177,
   "long": 37.28815,
   "name": "ЗАО НефтеХимСервис",
   "volume": 6,
   "founded":2008,
   "products": [],
   "director": ""
  },

   {
   "address":"Россия, 453256, Республика Башкортостан, г. Салават, ул. Молодогвардейцев, 30",
   "lat": 53.400134,
   "long": 55.904758,
   "name": "Газпром Нефтехим Салават",
   "volume": 12.2,
   "founded":1995,
   "products": ["Нефтепродукты", "Битум", "Мазут"],
   "director": "Файрузов Данис Хасанович"
   },
   
   {
   "address":"Россия, Край Красноярский, Район Уярский, Город Уяр, Улица Нефтепровод, 1 А-2/5",
   "lat":55.812421,
   "long":94.328435,
   "name":"Уярский НПЗ",
   "volume":-2,
   "founded":2007,
   "products": ["Кокс", "нефтепродукты", "ядерные материалы"],
   "director":"Кантор Вадим Евгеньевич"
   }
]
